[
  {
    "type": "Feature",
    "properties": {
      "name": "STFC Computational Science and Engineering Division",
      "head": "Ilian Todorov",
      "website": "https://www.scd.stfc.ac.uk/Pages/Computational-Chemistry-Group.aspx",
      "email": "ilian.todorov@tstfc.ac.uk",
      "phone": "01925603681",
      "twitter": "@ilian_t_todorov",
      "postcode": "WA4 4AD"
    },
    "geometry": {
      "type": "Point",
      "coordinates": [
        2.64,
        53.3446
      ]
    }
  },
  {
    "type": "Feature",
    "properties": {
      "name": "Alan Turing Institute",
      "head": "Martin O'Reilly",
      "website": "https://www.turing.ac.uk/research-engineering",
      "email": "moreilly@turing.ac.uk",
      "phone": "020 3862 3359",
      "twitter": "@turinghut23",
      "postcode": "NW1 2DB"
    },
    "geometry": {
      "type": "Point",
      "coordinates": [
        -0.127014,
        51.529985
      ]
    }
  },
  {
    "type": "Feature",
    "properties": {
      "name": "UKAEA",
      "head": "Alys Brett",
      "website": "No external website but https://twitter.com/RSECulham",
      "email": "alys.brett@ukaea.uk",
      "phone": "01235 465025",
      "twitter": "@RSECulham",
      "postcode": "OX14 3EB"
    },
    "geometry": {
      "type": "Point",
      "coordinates": [
        -1.227663,
        51.658881
      ]
    }
  },
  {
    "type": "Feature",
    "properties": {
      "name": "University of Bath",
      "head": "Conn O'Rourke",
      "website": "FWIW: https://www.bath.ac.uk/campaigns/research-software-engineer/",
      "email": "rse-support@bath.ac.uk / cor22@bath.ac.uk",
      "phone": "01225 386940",
      "postcode": "BA2 7AY"
    },
    "geometry": {
      "type": "Point",
      "coordinates": [
        -2.327157,
        51.379324
      ]
    }
  },
  {
    "type": "Feature",
    "properties": {
      "name": "University of Birmingham",
      "head": "Andrew Edmondson",
      "website": "https://intranet.birmingham.ac.uk/it/teams/infrastructure/research/bear/rsg/research-software-group.aspx",
      "postcode": "B15 2TT"
    },
    "geometry": {
      "type": "Point",
      "coordinates": [
        -1.92789,
        52.453282
      ]
    }
  },
  {
    "type": "Feature",
    "properties": {
      "name": "University of Bristol",
      "head": "Christopher Woods",
      "website": "No good external website, but https://www.bristol.ac.uk/acrc/research-software-engineering/",
      "email": "ask-rse@bristol.ac.uk",
      "phone": "No phone number (21C email, slack, twitter only)",
      "twitter": "@BristolRSE",
      "postcode": "BS8 1TH"
    },
    "geometry": {
      "type": "Point",
      "coordinates": [
        -2.603291,
        51.459066
      ]
    }
  },
  {
    "type": "Feature",
    "properties": {
      "name": "University of Bristol",
      "head": "Serena Cooper",
      "website": "https://www.bristol.ac.uk/research-it/",
      "email": "research-it@bristol.ac.uk",
      "twitter": "@BrisUniRIT",
      "postcode": "BS1 5QD"
    },
    "geometry": {
      "type": "Point",
      "coordinates": [
        -2.605137,
        51.452834
      ]
    }
  },
  {
    "type": "Feature",
    "properties": {
      "name": "University of Cambridge",
      "head": "Chris Edsall",
      "website": "rse.group.cam.ac.uk",
      "email": "cje57@cam.ac.uk",
      "twitter": "@RSECambridge",
      "postcode": "CB2 1TN"
    },
    "geometry": {
      "type": "Point",
      "coordinates": [
        0.116179,
        52.205105
      ]
    }
  },
  {
    "type": "Feature",
    "properties": {
      "name": "University of Cardiff",
      "postcode": "CF10 3AT"
    },
    "geometry": {
      "type": "Point",
      "coordinates": [
        -3.179717,
        51.489014
      ]
    }
  },
  {
    "type": "Feature",
    "properties": {
      "name": "Durham University",
      "head": "Ed Ruck-Keene",
      "website": "https://www.dur.ac.uk/arc/rse",
      "email": "arc@durham.ac.uk",
      "twitter": "@ARC_DU",
      "postcode": "DH1 3LE"
    },
    "geometry": {
      "type": "Point",
      "coordinates": [
        -1.571874,
        54.768112
      ]
    }
  },
  {
    "type": "Feature",
    "properties": {
      "name": "EPCC",
      "head": "Lorna Smith/Andy Turner",
      "website": "http://www.epcc.ed.ac.uk",
      "email": "info@epcc.ed.ac.uk",
      "phone": "0131 650 5030",
      "postcode": "EH8 9BT"
    },
    "geometry": {
      "type": "Point",
      "coordinates": [
        -3.186426,
        55.94527
      ]
    }
  },
  {
    "type": "Feature",
    "properties": {
      "name": "Francis Crick Institute",
      "postcode": "NW1 1AT"
    },
    "geometry": {
      "type": "Point",
      "coordinates": [
        -0.128033,
        51.531854
      ]
    }
  },
  {
    "type": "Feature",
    "properties": {
      "name": "Imperial College London",
      "website": "https://www.imperial.ac.uk/admin-services/ict/self-service/research-support/rcs/research-software-engineering/",
      "email": "rse-team-lead@imperial.ac.uk",
      "postcode": "SW7 2AZ"
    },
    "geometry": {
      "type": "Point",
      "coordinates": [
        -0.176923,
        51.498317
      ]
    }
  },
  {
    "type": "Feature",
    "properties": {
      "name": "RESIDE",
      "head": "Rich FitzJohn",
      "website": "https://reside-ic.github.io/",
      "email": "reside@imperial.ac.uk",
      "postcode": "W2 1NY"
    },
    "geometry": {
      "type": "Point",
      "coordinates": [
        0.1735,
        51.517
      ]
    }
  },
  {
    "type": "Feature",
    "properties": {
      "name": "Kings College London",
      "postcode": "WC2R 2LS"
    },
    "geometry": {
      "type": "Point",
      "coordinates": [
        -0.116253,
        51.511612
      ]
    }
  },
  {
    "type": "Feature",
    "properties": {
      "name": "University of Leeds",
      "head": "Martin Callaghan",
      "website": "https://arc.leeds.ac.uk",
      "email": "m.callaghan@leeds.ac.uk",
      "postcode": "LS2 9JT"
    },
    "geometry": {
      "type": "Point",
      "coordinates": [
        -1.553329,
        53.807958
      ]
    }
  },
  {
    "type": "Feature",
    "properties": {
      "name": "University of Leicester",
      "postcode": "LE1 7RH"
    },
    "geometry": {
      "type": "Point",
      "coordinates": [
        -1.124531,
        52.622086
      ]
    }
  },
  {
    "type": "Feature",
    "properties": {
      "name": "The University of Manchester",
      "head": "Robert Haines",
      "website": "http://www.itservices.manchester.ac.uk/research/",
      "email": "robert.haines@manchester.ac.uk",
      "phone": "0161 275 7821",
      "postcode": "M13 9PL"
    },
    "geometry": {
      "type": "Point",
      "coordinates": [
        -2.233578,
        53.466926
      ]
    }
  },
  {
    "type": "Feature",
    "properties": {
      "name": "Newcastle University",
      "head": "Mark Turner",
      "email": "mark.turner@ncl.ac.uk",
      "postcode": "NE1 7RU"
    },
    "geometry": {
      "type": "Point",
      "coordinates": [
        -1.615713,
        54.98032
      ]
    }
  },
  {
    "type": "Feature",
    "properties": {
      "name": "University of Nottingham",
      "head": "Philip Quinlan",
      "email": "Philip.Quinlan@nottingham.ac.uk",
      "postcode": "NG7 2RD"
    },
    "geometry": {
      "type": "Point",
      "coordinates": [
        -1.191193,
        52.940521
      ]
    }
  },
  {
    "type": "Feature",
    "properties": {
      "name": "Open University",
      "head": "Michelle Bachler",
      "email": "Michelle Bachler",
      "phone": "01908 659836",
      "postcode": "MK7 6AA"
    },
    "geometry": {
      "type": "Point",
      "coordinates": [
        -0.709747,
        52.024914
      ]
    }
  },
  {
    "type": "Feature",
    "properties": {
      "name": "University of Oxford",
      "head": "Martin Robinson",
      "website": "https://www.rse.ox.ac.uk/",
      "email": "rse@cs.ox.ac.uk",
      "phone": "01865 610671",
      "postcode": "OX1 3QD"
    },
    "geometry": {
      "type": "Point",
      "coordinates": [
        -1.258503,
        51.759895
      ]
    }
  },
  {
    "type": "Feature",
    "properties": {
      "name": "Queen Mary University of London",
      "head": "Iain Barrass",
      "email": "its-research-support@qmul.ac.uk; i.barrass@qmul.ac.uk",
      "postcode": "E1 4NS"
    },
    "geometry": {
      "type": "Point",
      "coordinates": [
        -0.04071,
        51.524636
      ]
    }
  },
  {
    "type": "Feature",
    "properties": {
      "name": "University of Reading",
      "head": "Paul Heaton & Maria Broadbridge",
      "website": "https://research.reading.ac.uk/rse/",
      "email": "p.m.heaton@reading.ac.uk; m.b.broadbridge@reading.ac.uk",
      "postcode": "RG6 6AH"
    },
    "geometry": {
      "type": "Point",
      "coordinates": [
        -0.945636,
        51.457625
      ]
    }
  },
  {
    "type": "Feature",
    "properties": {
      "name": "The University of Sheffield",
      "head": "Paul Richmond",
      "website": "http://rse.shef.ac.uk",
      "email": "rse@sheffield.ac.uk",
      "twitter": "RSE_Sheffield",
      "postcode": "S10 2TN"
    },
    "geometry": {
      "type": "Point",
      "coordinates": [
        -1.48853,
        53.381363
      ]
    }
  },
  {
    "type": "Feature",
    "properties": {
      "name": "University of Southampton",
      "head": "Simon Hettrick and John Robinson",
      "website": "https://rsgsoton.net/",
      "email": "rsg-info@soton.ac.uk",
      "phone": "02380 595729",
      "twitter": "@RSGSoton",
      "postcode": "SO17 1BJ"
    },
    "geometry": {
      "type": "Point",
      "coordinates": [
        -1.395714,
        50.934099
      ]
    }
  },
  {
    "type": "Feature",
    "properties": {
      "name": "University of St Andrews",
      "head": "Alexander Konovalov",
      "website": "Under construction (newly established Research Software Group at the School of Computer Science) https://rse.cs.st-andrews.ac.uk/",
      "email": "alexander.konovalov@st-andrews.ac.uk",
      "phone": "01334 461633",
      "postcode": "KY16 9SX"
    },
    "geometry": {
      "type": "Point",
      "coordinates": [
        -2.809421,
        56.339949
      ]
    }
  },
  {
    "type": "Feature",
    "properties": {
      "name": "University of St Andrews",
      "head": "Patrick McCann/Swithun Crowe/ Mary Woodcock Kroble",
      "website": "(slightly out-of-date; new site expected soon) https://www.st-andrews.ac.uk/library/services/researchsupport/digihum-rescomp/",
      "email": "research-computing@st-andrews.ac.uk",
      "postcode": "KY16 9AL"
    },
    "geometry": {
      "type": "Point",
      "coordinates": [
        -2.793303,
        56.341752
      ]
    }
  },
  {
    "type": "Feature",
    "properties": {
      "name": "STFC Software Engineering Group",
      "head": "Alejandra Gonzalez-Beltran",
      "website": "https://www.scd.stfc.ac.uk/Pages/Software-Engineering-Group.aspx",
      "email": "alejandra.gonzalez-beltran@stfc.ac.uk",
      "phone": "+44 (0)1235 446339",
      "postcode": "OX11 0QX"
    },
    "geometry": {
      "type": "Point",
      "coordinates": [
        -1.314517,
        51.574887
      ]
    }
  },
  {
    "type": "Feature",
    "properties": {
      "name": "University of Strathclyde",
      "head": "Oliver Henrich",
      "email": "oliver.henrich@strath.ac.uk",
      "phone": "0141 548 4012",
      "postcode": "G4 0NG"
    },
    "geometry": {
      "type": "Point",
      "coordinates": [
        -4.239865,
        55.861521
      ]
    }
  },
  {
    "type": "Feature",
    "properties": {
      "name": "Swansea Academy of Advanced Computing, Swansea University",
      "head": "Ed Bennett/Mark Dawson",
      "website": "No external website but https://twitter.com/sa2c_swansea",
      "email": "e.j.bennett@swansea.ac.uk/mark.dawson@swansea.ac.uk",
      "phone": "01792 513617",
      "postcode": "SA1 8EN"
    },
    "geometry": {
      "type": "Point",
      "coordinates": [
        -3.879405,
        51.6188
      ]
    }
  },
  {
    "type": "Feature",
    "properties": {
      "name": "University College London",
      "head": "Jonathan Cooper",
      "website": "http://www.ucl.ac.uk/research-it-services/research-software-development",
      "email": "rc-softdev@ucl.ac.uk",
      "phone": "020 310 86297",
      "postcode": "WC1E 6BT"
    },
    "geometry": {
      "type": "Point",
      "coordinates": [
        -0.132424,
        51.523569
      ]
    }
  },
  {
    "type": "Feature",
    "properties": {
      "name": "University of York",
      "postcode": "YO10 5DD"
    },
    "geometry": {
      "type": "Point",
      "coordinates": [
        -1.053544,
        53.948419
      ]
    }
  },
  {
    "type": "Feature",
    "properties": {
      "name": "University of Exeter",
      "head": "Katie Finch",
      "website": "https://www.exeter.ac.uk/idsai/team/researchsoftwareengineers/",
      "email": "k.j.finch@exeter.ac.uk",
      "postcode": "EX4 4PY"
    },
    "geometry": {
      "type": "Point",
      "coordinates": [
        -3.534504,
        50.735424
      ]
    }
  }
]